{
"type": "FeatureCollection",
"name": "tourism_stops",
"crs": { "type": "name", "properties": { "name": "urn:ogc:def:crs:OGC:1.3:CRS84" } },
"features": [
{ "type": "Feature", "properties": { "fid": 1, "objectid": 309, "nome_ponto": "Av. Luiz Xavier - Boca Maldita", "num": 110206, "lat": -25.43210252, "lon": -49.27425597, "tipo": "Linha Turismo" }, "geometry": { "type": "Point", "coordinates": [ -49.274255968559736, -25.4321025236186 ] } },
{ "type": "Feature", "properties": { "fid": 2, "objectid": 398, "nome_ponto": "Av. Manoel Ribas, 5666 - Santa Felicidade", "num": 190968, "lat": -25.40524254, "lon": -49.32663515, "tipo": "Linha Turismo" }, "geometry": { "type": "Point", "coordinates": [ -49.326635152285014, -25.405242543056026 ] } },
{ "type": "Feature", "properties": { "fid": 3, "objectid": 824, "nome_ponto": "Bosque Alemão", "num": 190419, "lat": -25.40717957, "lon": -49.28498983, "tipo": "Linha Turismo" }, "geometry": { "type": "Point", "coordinates": [ -49.284989833986344, -25.407179565111321 ] } },
{ "type": "Feature", "properties": { "fid": 4, "objectid": 825, "nome_ponto": "Bosque do Papa", "num": 120573, "lat": -25.4091351, "lon": -49.27146781, "tipo": "Linha Turismo" }, "geometry": { "type": "Point", "coordinates": [ -49.271467812405717, -25.409135103000146 ] } },
{ "type": "Feature", "properties": { "fid": 5, "objectid": 842, "nome_ponto": "Centro Cívico", "num": 120461, "lat": -25.41639639, "lon": -49.26865518, "tipo": "Linha Turismo" }, "geometry": { "type": "Point", "coordinates": [ -49.268655180772434, -25.416396387128962 ] } },
{ "type": "Feature", "properties": { "fid": 6, "objectid": 1265, "nome_ponto": "Jd. Botânico", "num": 140104, "lat": -25.44204587, "lon": -49.24141877, "tipo": "Linha Turismo" }, "geometry": { "type": "Point", "coordinates": [ -49.241418773416093, -25.442045869864444 ] } },
{ "type": "Feature", "properties": { "fid": 7, "objectid": 1296, "nome_ponto": "Memorial Árabe", "num": 110002, "lat": -25.4236365, "lon": -49.26860707, "tipo": "Linha Turismo" }, "geometry": { "type": "Point", "coordinates": [ -49.268607068934443, -25.423636504120317 ] } },
{ "type": "Feature", "properties": { "fid": 8, "objectid": 1297, "nome_ponto": "Memorial Ucraniano", "num": 190361, "lat": -25.40241286, "lon": -49.30570889, "tipo": "Linha Turismo" }, "geometry": { "type": "Point", "coordinates": [ -49.305708892911603, -25.402412859366063 ] } },
{ "type": "Feature", "properties": { "fid": 9, "objectid": 1299, "nome_ponto": "Museu do Automóvel - Pq. Barigui", "num": 190941, "lat": -25.42313831, "lon": -49.30601299, "tipo": "Linha Turismo" }, "geometry": { "type": "Point", "coordinates": [ -49.306012988188563, -25.423138307645075 ] } },
{ "type": "Feature", "properties": { "fid": 10, "objectid": 1300, "nome_ponto": "Museu Ferroviário", "num": 110212, "lat": -25.43755356, "lon": -49.26490009, "tipo": "Linha Turismo" }, "geometry": { "type": "Point", "coordinates": [ -49.264900088189208, -25.437553560597802 ] } },
{ "type": "Feature", "properties": { "fid": 11, "objectid": 1301, "nome_ponto": "Museu Oscar Niemeyer", "num": 120542, "lat": -25.40905008, "lon": -49.2672269, "tipo": "Linha Turismo" }, "geometry": { "type": "Point", "coordinates": [ -49.267226903818354, -25.409050081497202 ] } },
{ "type": "Feature", "properties": { "fid": 12, "objectid": 1310, "nome_ponto": "Ópera de Arame & Pedreira Paulo Leminsk", "num": 120074, "lat": -25.3854991, "lon": -49.27520257, "tipo": "Linha Turismo" }, "geometry": { "type": "Point", "coordinates": [ -49.275202565284928, -25.385499095899956 ] } },
{ "type": "Feature", "properties": { "fid": 13, "objectid": 1314, "nome_ponto": "Paço da Liberdade", "num": 110001, "lat": -25.42959821, "lon": -49.2692042, "tipo": "Linha Turismo" }, "geometry": { "type": "Point", "coordinates": [ -49.269204195978411, -25.429598204669805 ] } },
{ "type": "Feature", "properties": { "fid": 14, "objectid": 1315, "nome_ponto": "Parque São Lourenço", "num": 120718, "lat": -25.388967, "lon": -49.26745892, "tipo": "Linha Turismo" }, "geometry": { "type": "Point", "coordinates": [ -49.267458915995377, -25.388966997308064 ] } },
{ "type": "Feature", "properties": { "fid": 15, "objectid": 1316, "nome_ponto": "Parque Tanguá", "num": 120586, "lat": -25.37838458, "lon": -49.28084314, "tipo": "Linha Turismo" }, "geometry": { "type": "Point", "coordinates": [ -49.280843138753092, -25.378384577005676 ] } },
{ "type": "Feature", "properties": { "fid": 16, "objectid": 1317, "nome_ponto": "Parque Tingui", "num": 190363, "lat": -25.38842563, "lon": -49.30597024, "tipo": "Linha Turismo" }, "geometry": { "type": "Point", "coordinates": [ -49.305970240846499, -25.388425633969977 ] } },
{ "type": "Feature", "properties": { "fid": 17, "objectid": 1372, "nome_ponto": "Praça Rui Barbosa - 863 - Água Verde", "num": 102026, "lat": -25.43652703, "lon": -49.27280238, "tipo": "Linha Turismo" }, "geometry": { "type": "Point", "coordinates": [ -49.272802383480958, -25.436527028263246 ] } },
{ "type": "Feature", "properties": { "fid": 18, "objectid": 1400, "nome_ponto": "Praça Tiradentes - 979 - Linha Turismo", "num": 101016, "lat": -25.42958601, "lon": -49.27154426, "tipo": "Linha Turismo" }, "geometry": { "type": "Point", "coordinates": [ -49.271544255310388, -25.429586014424192 ] } },
{ "type": "Feature", "properties": { "fid": 19, "objectid": 2343, "nome_ponto": "Rua 24 Horas", "num": 110093, "lat": -25.43489882, "lon": -49.27603662, "tipo": "Linha Turismo" }, "geometry": { "type": "Point", "coordinates": [ -49.276036620503767, -25.434898822625243 ] } },
{ "type": "Feature", "properties": { "fid": 20, "objectid": 4504, "nome_ponto": "Rua Jacarezinho, 620 - Mercês", "num": 190211, "lat": -25.42381205, "lon": -49.29458192, "tipo": "Linha Turismo" }, "geometry": { "type": "Point", "coordinates": [ -49.29458192348617, -25.423812053022196 ] } },
{ "type": "Feature", "properties": { "fid": 21, "objectid": 5231, "nome_ponto": "Rua Madre Clelia Merloni, 30 - Santa Felicidade", "num": 190969, "lat": -25.40140533, "lon": -49.33182979, "tipo": "Linha Turismo" }, "geometry": { "type": "Point", "coordinates": [ -49.331829786394742, -25.401405331714326 ] } },
{ "type": "Feature", "properties": { "fid": 22, "objectid": 5583, "nome_ponto": "Rua Nicolo Paganini, 440 - Vista Alegre (Bosque Alemão)", "num": 190375, "lat": -25.40457229, "lon": -49.28828493, "tipo": "Linha Turismo" }, "geometry": { "type": "Point", "coordinates": [ -49.288284927248775, -25.404572285087657 ] } },
{ "type": "Feature", "properties": { "fid": 23, "objectid": 6750, "nome_ponto": "Rua Victor Benato, 283 - Pilarzinho (Universidade Livre do Meio Ambiente)", "num": 120543, "lat": -25.39861857, "lon": -49.28237183, "tipo": "Linha Turismo" }, "geometry": { "type": "Point", "coordinates": [ -49.282371829507028, -25.398618570975326 ] } },
{ "type": "Feature", "properties": { "fid": 24, "objectid": 6841, "nome_ponto": "Teatro Guaíra", "num": 110092, "lat": -25.42860631, "lon": -49.26526981, "tipo": "Linha Turismo" }, "geometry": { "type": "Point", "coordinates": [ -49.265269814024485, -25.428606306663347 ] } },
{ "type": "Feature", "properties": { "fid": 25, "objectid": 6842, "nome_ponto": "Teatro Paiol", "num": 140277, "lat": -25.44800966, "lon": -49.25745428, "tipo": "Linha Turismo" }, "geometry": { "type": "Point", "coordinates": [ -49.25745427628074, -25.448009655285123 ] } }
]
}
